filename,min_lat,max_lat,min_lon,max_lon,year,month,day
flood_WM_S1A_IW_GRDH_1SDV_20180919T231415_20180919T231440_023774_0297CC_374E.tif,34.74105944985929,36.65051841778375,-80.32257915222603,-77.18368588645559,2018,9,19
non_flood_WM1_S1A_IW_GRDH_1SDV_20180826T231414_20180826T231439_023424_028C94_1E26.tif,34.741002227352325,36.65046119527678,-80.32206767217735,-77.18317440640692,2018,8,26
non_flood_WM2_S1A_IW_GRDH_1SDV_20180907T231415_20180907T231440_023599_02922C_3340.tif,34.741028930234776,36.650487898159234,-80.32231189919293,-77.18341863342249,2018,9,7
non_flood_WM3_S1A_IW_GRDH_1SDV_20181001T231415_20181001T231440_023949_029D80_240D.tif,34.74100395060628,36.65055275005914,-80.32262490240245,-77.18364180510362,2018,10,1
non_flood_WM4_S1A_IW_GRDH_1SDV_20181013T231416_20181013T231441_024124_02A33B_A10C.tif,34.740897137247686,36.65044593670055,-80.32337246556106,-77.1842097052054,2018,10,13
flood_WM_S1A_IW_GRDH_1SDV_20180919T231350_20180919T231415_023774_0297CC_B86C.tif,33.23573290209127,35.14752748975444,-79.96772062924381,-76.88353476427626,2018,9,19
non_flood_WM1_S1A_IW_GRDH_1SDV_20180814T231349_20180814T231414_023249_0286F7_8F75.tif,33.235673959862254,35.14737871599701,-79.96726304646545,-76.88325684455472,2018,8,14
non_flood_WM2_S1A_IW_GRDH_1SDV_20180826T231349_20180826T231414_023424_028C94_F0B9.tif,33.2357464391103,35.147451195245054,-79.96724059239843,-76.8832343904877,2018,8,26
non_flood_WM3_S1A_IW_GRDH_1SDV_20180907T231350_20180907T231415_023599_02922C_5F84.tif,33.235788401344294,35.14749315747905,-79.96749213538612,-76.88339610194699,2018,9,7
non_flood_WM4_S1A_IW_GRDH_1SDV_20181013T231351_20181013T231416_024124_02A33B_4653.tif,33.23564898136344,35.147443569026606,-79.96848366012156,-76.8842079636256,2018,10,13
flood_WM_S1A_IW_GRDH_1SDV_20170829T002645_20170829T002710_018131_01E74D_3220.tif,29.542673577061528,31.45949873031576,-97.62564273725326,-94.67584483878998,2017,8,29
non_flood_WM1_S1A_IW_GRDH_1SDV_20170724T002643_20170724T002708_017606_01D755_602F.tif,29.54250573460791,31.459330887862144,-97.62470443375149,-94.67490653528822,2017,7,24
non_flood_WM2_S1A_IW_GRDH_1SDV_20170805T002644_20170805T002710_017781_01DCB4_8FDF.tif,29.542501799015685,31.531192174999482,-97.64166527009709,-94.70659974229338,2017,8,5
non_flood_WM3_S1A_IW_GRDH_1SDV_20170910T002645_20170910T002710_018306_01ECAF_2E7C.tif,29.542528436648833,31.45944342143148,-97.62524622445981,-94.67544832599654,2017,9,10
non_flood_WM4_S1A_IW_GRDH_1SDV_20171004T002646_20171004T002711_018656_01F76A_2CC8.tif,29.54248199917076,31.456971532686286,-97.62532206171922,-94.69133451225645,2017,10,4
flood_WM_S1A_IW_GRDH_1SDV_20170829T002735_20170829T002800_018131_01E74D_B8C4.tif,32.556161279525504,34.46723721496137,-98.31523276523326,-95.26787782691461,2017,8,29
non_flood_WM1_S1A_IW_GRDH_1SDV_20170712T002732_20170712T002757_017431_01D208_0517.tif,32.5557624623081,34.46692822927238,-98.31452303161377,-95.26716809329513,2017,7,12
non_flood_WM2_S1A_IW_GRDH_1SDV_20170910T002735_20170910T002800_018306_01ECAF_7C03.tif,32.55603539508514,34.46711133052101,-98.31478999576416,-95.2673452259171,2017,9,10
non_flood_WM3_S1A_IW_GRDH_1SDV_20171004T002736_20171004T002801_018656_01F76A_9291.tif,32.55594280970135,34.46477295692692,-98.3148967390269,-95.2837114758224,2017,10,4
non_flood_WM4_S1A_IW_GRDH_1SDV_20171016T002736_20171016T002801_018831_01FCC0_40B3.tif,32.55586754657595,34.46694348201182,-98.31562166737426,-95.26799723447037,2017,10,16
flood_WM_S1A_IW_GRDH_1SDV_20170829T002620_20170829T002645_018131_01E74D_D734.tif,28.034980438081163,29.954859863301404,-97.28866019349144,-94.3827000808932,2017,8,29
non_flood_WM1_S1A_IW_GRDH_1SDV_20170724T002618_20170724T002643_017606_01D755_0499.tif,28.03475155890648,29.95463098412672,-97.28774438809279,-94.38169444396614,2017,7,24
non_flood_WM2_S1A_IW_GRDH_1SDV_20170805T002619_20170805T002644_017781_01DCB4_1716.tif,28.03477829234113,29.95007630961236,-97.28837005391618,-94.41295266097801,2017,8,5
non_flood_WM4_S1A_IW_GRDH_1SDV_20171004T002621_20171004T002646_018656_01F76A_595C.tif,28.03475052652888,29.952384163538824,-97.2883556457078,-94.397756724468,2017,10,4
flood_WM_S1A_IW_GRDH_1SDV_20170831T001029_20170831T001054_018160_01E82D_0776.tif,30.233226519423855,32.1486143682235,-93.67004554051641,-90.69949655898998,2017,8,31
non_flood_WM1_S1A_IW_GRDH_1SDV_20170807T001028_20170807T001053_017810_01DD99_F836.tif,30.233093004227232,32.148480853026875,-93.66948080222912,-90.69893182070268,2017,8,7
non_flood_WM2_S1A_IW_GRDH_1SDV_20170819T001029_20170819T001054_017985_01E2E8_F302.tif,30.23304341054082,32.14843125934046,-93.67014481236002,-90.69950599930517,2017,8,19
non_flood_WM3_S1A_IW_GRDH_1SDV_20170912T001029_20170912T001054_018335_01EDA6_7CF2.tif,30.23315194292169,32.14862962324975,-93.6704498671915,-90.69990088566506,2017,9,12
non_flood_WM4_S1A_IW_GRDH_1SDV_20170924T001030_20170924T001055_018510_01F303_7AF2.tif,30.233071839429922,32.14854951975798,-93.67001507197985,-90.69928642739659,2017,9,24
flood_WM_S1A_IW_GRDH_1SDV_20170831T001004_20170831T001029_018160_01E82D_9366.tif,28.726046835468544,30.644309293177372,-93.33057595277518,-90.40422408322742,2017,8,31
non_flood_WM1_S1A_IW_GRDH_1SDV_20170807T001003_20170807T001028_017810_01DD99_078C.tif,28.725819862928358,30.644082320637185,-93.33003421917566,-90.40377218115631,2017,8,7
non_flood_WM2_S1A_IW_GRDH_1SDV_20170819T001004_20170819T001029_017985_01E2E8_5C42.tif,28.725844657999172,30.644107115708,-93.33068289515516,-90.4043310256074,2017,8,19
non_flood_WM3_S1A_IW_GRDH_1SDV_20170912T001004_20170912T001029_018335_01EDA6_2AA9.tif,28.725974357706203,30.64423681541503,-93.3309421543135,-90.40459028476575,2017,9,12
non_flood_WM4_S1A_IW_GRDH_1SDV_20170924T001005_20170924T001030_018510_01F303_F9CE.tif,28.725968820670158,30.644141446850572,-93.33052248255979,-90.40408078148361,2017,9,24
flood_WM_S1A_IW_GRDH_1SDV_20190617T000326_20190617T000351_027712_0320C9_3AC6.tif,33.9799093446654,35.889188649533025,-92.48024118600485,-89.3795263198095,2019,6,17
non_flood_WM1_S1A_IW_GRDH_1SDV_20181113T000325_20181113T000350_024562_02B230_0AA0.tif,33.97975256476153,35.88921153268599,-92.48246880266703,-89.38130477882962,2018,11,13
non_flood_WM2_S1A_IW_GRDH_1SDV_20181125T000325_20181125T000350_024737_02B8A0_CF52.tif,33.97972032733451,35.889089463730556,-92.48133191607205,-89.38016789223464,2018,11,25
non_flood_WM3_S1A_IW_GRDH_1SDV_20181207T000324_20181207T000349_024912_02BE7D_6A7C.tif,33.97978308290287,35.88924205082733,-92.48191184245353,-89.3806579870877,2018,12,7
non_flood_WM4_S1A_IW_GRDH_1SDV_20181231T000324_20181231T000349_025262_02CB2C_DF4A.tif,33.97961141856224,35.8890703864867,-92.48270531055088,-89.38145145518506,2018,12,31
flood_WM_S1A_IW_GRDH_1SDV_20190617T000236_20190617T000301_027712_0320C9_5E5F.tif,30.968256535519615,32.88238674292149,-91.78044268714095,-88.7812374480511,2019,6,17
non_flood_WM1_S1A_IW_GRDH_1SDV_20181219T000234_20181219T000259_025087_02C4D5_CDFD.tif,30.968073058928173,32.88238292938687,-91.78148793560425,-88.78165387581552,2018,12,19
non_flood_WM2_S1A_IW_GRDH_1SDV_20190205T000232_20190205T000257_025787_02DE35_72D4.tif,30.968103949353996,32.88223415675587,-91.78075543829421,-88.78119087309071,2019,2,5
non_flood_WM3_S1A_IW_GRDH_1SDV_20190217T000232_20190217T000257_025962_02E467_799D.tif,30.96789376553472,32.88220363599341,-91.78191515156493,-88.78217092330462,2019,2,17
non_flood_WM4_S1A_IW_GRDH_1SDV_20190325T000232_20190325T000257_026487_02F77B_0433.tif,30.967825098360308,32.88213496881901,-91.7829679893072,-88.78331359257528,2019,3,25
flood_WM_S1A_IW_GRDH_1SDV_20190617T000301_20190617T000326_027712_0320C9_9D85.tif,32.47429849199553,34.38600324813029,-92.12815209401046,-89.0800785034645,2019,6,17
non_flood_WM1_S1A_IW_GRDH_1SDV_20181207T000259_20181207T000324_024912_02BE7D_E358.tif,32.47427178421223,34.38597654034698,-92.12976185807551,-89.0812391098875,2018,12,7
non_flood_WM2_S1A_IW_GRDH_1SDV_20181219T000259_20181219T000324_025087_02C4D5_16A4.tif,32.47410565930596,34.38590024696913,-92.1292659502485,-89.08065337053208,2018,12,19
non_flood_WM3_S1A_IW_GRDH_1SDV_20190205T000257_20190205T000322_025787_02DE35_8A91.tif,32.47404671946758,34.38575147560233,-92.12848777077748,-89.08005485411789,2019,2,5
non_flood_WM4_S1A_IW_GRDH_1SDV_20190217T000257_20190217T000322_025962_02E467_DF07.tif,32.47401238980829,34.38571714594304,-92.12967022725817,-89.08114747907017,2019,2,17
flood_WM_S1A_IW_GRDH_1SDV_20190617T000441_20190617T000506_027712_0320C9_42BF.tif,38.49238282731717,40.3948349360255,-93.58631060879156,-90.29120031511275,2019,6,17
non_flood_WM1_S1A_IW_GRDH_1SDV_20181207T000439_20181207T000504_024912_02BE7D_3B80.tif,38.49220144729018,40.394743387526916,-93.58818759246259,-90.2926281411417,2018,12,7
non_flood_WM2_S1A_IW_GRDH_1SDV_20181219T000439_20181219T000504_025087_02C4D5_A60D.tif,38.492037413699926,40.394579353936656,-93.58781372741633,-90.29207461303864,2018,12,19
non_flood_WM3_S1A_IW_GRDH_1SDV_20190112T000438_20190112T000503_025437_02D177_E563.tif,38.49199544702358,40.39453738726031,-93.58890485133651,-90.29316573695881,2019,1,12
non_flood_WM4_S1A_IW_GRDH_1SDV_20190124T000438_20190124T000503_025612_02D7DA_723B.tif,38.492073841878835,40.39452595058715,-93.58844727200527,-90.2928878206844,2019,1,24
flood_WM_S1A_IW_GRDH_1SDV_20190617T000416_20190617T000441_027712_0320C9_B9D7.tif,36.98964627787253,38.89362552256386,-93.20905288043205,-89.98014842319284,2019,6,17
non_flood_WM1_S1A_IW_GRDH_1SDV_20190112T000413_20190112T000438_025437_02D177_6C6F.tif,36.98926443419668,38.893423341944825,-93.2115476891549,-89.98210424274522,2019,1,12
non_flood_WM2_S1A_IW_GRDH_1SDV_20190205T000412_20190205T000437_025787_02DE35_7FFF.tif,36.989266528047615,38.89333560426735,-93.20954114612029,-89.98027736276744,2019,2,5
non_flood_WM3_S1A_IW_GRDH_1SDV_20190217T000412_20190217T000437_025962_02E467_43D4.tif,36.98921693698316,38.893286013202896,-93.21078481412069,-89.98152103076784,2019,2,17
non_flood_WM4_S1A_IW_GRDH_1SDV_20190301T000412_20190301T000437_026137_02EAA6_2A9D.tif,36.9890716050398,38.89332034431636,-93.21185296547354,-89.98240951906386,2019,3,1
flood_WM_S1A_IW_GRDH_1SDV_20190617T000351_20190617T000416_027712_0320C9_C310.tif,35.485031579995066,37.392065096652395,-92.83784557142803,-89.67954869552062,2019,6,17
non_flood_WM1_S1A_IW_GRDH_1SDV_20181219T000349_20181219T000414_025087_02C4D5_A4B3.tif,35.48480823593469,37.391931584120435,-92.83915025371658,-89.6802245571103,2018,12,19
non_flood_WM2_S1A_IW_GRDH_1SDV_20181231T000349_20181231T000414_025262_02CB2C_C2A6.tif,35.4847988835253,37.39183240018263,-92.84043191138392,-89.68159604630604,2018,12,31
non_flood_WM3_S1A_IW_GRDH_1SDV_20190112T000348_20190112T000413_025437_02D177_13B6.tif,35.48474338496593,37.39186673315167,-92.84020309193487,-89.6815468899138,2019,1,12
non_flood_WM4_S1A_IW_GRDH_1SDV_20190205T000347_20190205T000412_025787_02DE35_20FB.tif,35.48484294109163,37.39178662622055,-92.83827290788561,-89.67961670586455,2019,2,5
